City_ID,City,Lat,Lng,Max Temp,Humidity,Cloudiness,Wind Speed,Country,Date
0,okha,53.5739,142.9478,1.89,86,3,3.15,RU,1727815311
1,limon,10.0,-83.0333,26.94,94,100,2.06,CR,1727815311
2,edinburgh of the seven seas,-37.0676,-12.3116,13.68,86,5,9.03,SH,1727815311
3,esil,51.9556,66.4042,12.06,58,87,5.19,KZ,1727815274
4,fortuna,40.5982,-124.1573,25.52,60,0,4.63,US,1727815311
5,hithadhoo,-0.6,73.0833,28.42,76,19,7.36,MV,1727815311
6,campbell river,50.0163,-125.2446,12.0,93,100,2.06,CA,1727815145
7,grytviken,-54.2811,-36.5092,-4.29,78,53,6.32,GS,1727815311
8,port mathurin,-19.6833,63.4167,22.41,84,28,9.24,MU,1727815312
9,ta`u,-14.2336,-169.5144,24.72,83,100,9.72,AS,1727815312
10,tughyl,47.7252,84.2063,11.53,34,100,0.44,KZ,1727815312
11,kisangani,0.5167,25.2,22.88,90,72,1.36,CD,1727815312
12,barcelos,41.5388,-8.6151,18.42,99,100,1.07,PT,1727815312
13,st. john's,47.5649,-52.7093,12.21,94,100,11.18,CA,1727815312
14,ribeira grande,38.5167,-28.7,24.87,94,75,7.72,PT,1727815312
15,bilibino,68.0546,166.4372,0.18,93,100,1.93,RU,1727815312
16,metro,-5.1131,105.3067,24.21,89,77,1.5,ID,1727815312
17,tazovsky,67.4667,78.7,1.87,97,100,6.7,RU,1727815312
18,lebu,-37.6167,-73.65,9.6,60,5,6.78,CL,1727815312
19,bethel,41.3712,-73.414,20.34,71,98,0.45,US,1727815312
20,i-n-salah,27.1935,2.4607,34.19,16,38,8.67,DZ,1727815313
21,daru,-9.0763,143.2092,25.66,87,53,7.53,PG,1727815313
22,pandhana,21.7,76.2167,25.33,82,11,2.57,IN,1727815313
23,palmer,42.1584,-72.3287,21.4,52,75,2.57,US,1727815313
24,susuman,62.7833,148.1667,-6.87,85,33,1.26,RU,1727815313
25,waitangi,-43.9535,-176.5597,12.68,84,100,3.58,NZ,1727815313
26,port-aux-francais,-49.35,70.2167,4.57,86,100,10.61,TF,1727815313
27,kone,-21.0595,164.8658,23.3,68,26,2.54,NC,1727815313
28,puerto natales,-51.7236,-72.4875,4.25,81,100,1.03,CL,1727815313
29,mokhsogollokh,61.4681,128.9203,1.69,98,100,1.54,RU,1727815313
30,adamstown,-25.066,-130.1015,19.73,66,96,5.04,PN,1727815313
31,papatowai,-46.5619,169.4708,8.87,97,100,1.91,NZ,1727815313
32,blackmans bay,-43.0167,147.3167,5.29,83,21,0.45,AU,1727815314
33,haiku-pauwela,20.9219,-156.3051,29.03,69,40,8.23,US,1727815314
34,lompoc,34.6391,-120.4579,26.96,47,12,5.66,US,1727815062
35,chania,35.5122,24.0156,31.6,82,20,0.0,GR,1727815314
36,yellowknife,62.456,-114.3525,4.2,99,75,5.81,CA,1727815042
37,invercargill,-46.4,168.35,10.01,95,100,1.34,NZ,1727815314
38,kapuskasing,49.4169,-82.4331,13.05,82,75,3.6,CA,1727815314
39,chonchi,-42.6128,-73.8092,8.04,69,58,3.49,CL,1727815314
40,puerto ayora,-0.7393,-90.3518,21.97,89,69,2.68,EC,1727815314
41,ulladulla,-35.35,150.4667,12.92,86,100,4.31,AU,1727815315
42,tarfaya,27.9358,-12.9218,22.41,81,100,6.64,MA,1727815315
43,ushuaia,-54.8,-68.3,0.81,51,75,6.17,AR,1727815305
44,sao joao da barra,-21.6403,-41.0511,26.05,80,0,9.79,BR,1727815163
45,lazaro cardenas,17.9583,-102.2,28.05,80,99,2.97,MX,1727815033
46,nova sintra,14.8667,-24.7167,27.58,83,58,4.52,CV,1727815315
47,panghyon-dong,39.8872,125.2414,6.1,74,0,2.23,KP,1727815315
48,mount gambier,-37.8333,140.7667,6.78,100,32,1.68,AU,1727815315
49,wailua homesteads,22.0669,-159.378,28.44,72,20,4.63,US,1727815315
50,sisimiut,66.9395,-53.6735,3.44,90,100,3.34,GL,1727815315
51,birjand,32.8663,59.2211,14.26,28,0,3.09,IR,1727815316
52,slonim,53.0867,25.3219,7.02,80,87,2.03,BY,1727815316
53,dudinka,69.4058,86.1778,1.81,95,100,1.5,RU,1727815316
54,nidadavole,16.9167,81.6667,25.07,91,65,2.4,IN,1727815316
55,krasnokamensk,50.0979,118.0369,1.17,82,4,3.74,RU,1727815316
56,lihue,21.9789,-159.3672,28.77,67,20,4.63,US,1727815316
57,margaret river,-33.95,115.0667,12.11,87,74,10.02,AU,1727815316
58,qaqortoq,60.7167,-46.0333,3.8,76,1,0.15,GL,1727815316
59,ukiah,39.1502,-123.2078,37.83,16,0,1.54,US,1727815131
60,bhadra,29.1167,75.1667,30.71,39,0,3.12,IN,1727815316
61,keflavik,64.0049,-22.5624,8.24,93,100,5.66,IS,1727815317
62,broome,42.2506,-75.833,20.85,58,0,3.6,US,1727815317
63,coquimbo,-29.9533,-71.3436,17.85,57,0,6.69,CL,1727815068
64,bredasdorp,-34.5322,20.0403,9.69,74,88,2.17,ZA,1727815317
65,prado,-17.3411,-39.2208,23.22,81,0,3.09,BR,1727815317
66,punta arenas,-53.15,-70.9167,3.06,56,75,3.6,CL,1727815317
67,cranbrook,49.4999,-115.7688,16.91,20,75,8.75,CA,1727815169
68,mabaruma,8.2,-59.7833,29.08,71,40,2.63,GY,1727815317
69,hinton,53.4001,-117.5857,10.45,61,100,0.94,CA,1727815317
70,galliano,29.4422,-90.2992,31.0,45,0,5.14,US,1727815318
71,turpan,42.9333,89.1667,16.9,23,0,1.36,CN,1727815318
72,albany,42.6001,-73.9662,21.43,59,100,1.34,US,1727815222
73,kruisfontein,-34.0033,24.7314,9.08,73,5,2.82,ZA,1727815318
74,remire-montjoly,4.9167,-52.2667,31.02,66,0,5.66,GF,1727815120
75,afif,23.9065,42.9172,27.24,18,80,4.16,SA,1727815318
76,kodiak,57.79,-152.4072,12.73,47,0,2.06,US,1727815318
77,nago,26.5881,127.9761,26.95,90,100,3.53,JP,1727815318
78,ust-nera,64.5667,143.2,-5.44,90,85,1.39,RU,1727815318
79,conduaga,8.862,117.4893,25.41,91,100,1.64,PH,1727815318
80,minas de marcona,-15.2119,-75.1103,16.17,65,0,8.05,PE,1727815319
81,labrador city,52.9463,-66.9114,15.95,50,0,5.66,CA,1727815319
82,longyearbyen,78.2186,15.6401,-3.09,80,75,3.09,SJ,1727815319
83,midvagur,62.0511,-7.1939,9.46,93,100,4.12,FO,1727815319
84,port lincoln,-34.7333,135.8667,13.89,82,0,6.97,AU,1727815319
85,hermanus,-34.4187,19.2345,10.45,75,99,4.84,ZA,1727815319
86,paris,48.8534,2.3488,12.86,81,40,3.6,FR,1727815177
87,aykol,38.1751,77.2132,15.35,42,97,0.34,CN,1727815319
88,enewetak,11.3474,162.3373,29.16,77,81,9.27,MH,1727815319
89,ust'-kut,56.7938,105.7672,8.98,91,100,5.63,RU,1727815319
90,hawaiian paradise park,19.5933,-154.9731,26.6,85,9,1.79,US,1727815319
91,idri,27.5,13.2667,26.48,24,0,4.48,LY,1727815319
92,newnham,-41.3833,147.1333,2.53,80,20,1.54,AU,1727815320
93,vadso,70.0744,29.7487,5.09,60,0,14.4,NO,1727815320
94,urengoy,65.9667,78.3667,2.15,96,100,9.2,RU,1727815320
95,kumagunnam,13.1551,10.6342,32.67,29,63,4.8,NG,1727815320
96,chilmari,25.5559,89.6715,27.19,84,89,1.15,BD,1727815320
97,whitehorse,60.7161,-135.0538,3.78,86,100,1.54,CA,1727815320
98,cabo san lucas,22.8909,-109.9124,32.17,58,20,2.06,MX,1727815245
99,lahti,59.9911,30.1597,8.1,68,100,3.6,RU,1727815320
100,mandalgovi,45.7625,106.2708,1.65,67,0,3.34,MN,1727815320
101,acoyapa,11.9703,-85.1711,29.05,89,100,4.9,NI,1727815320
102,new plymouth,-39.0667,174.0833,15.45,100,100,6.3,NZ,1727815320
103,pariaman,-0.619,100.12,23.03,85,97,2.14,ID,1727815320
104,port-vila,-17.7338,168.3219,21.78,100,20,1.03,VU,1727815321
105,smithers,54.7804,-127.1743,10.18,71,75,4.63,CA,1727815293
106,taroa,8.7058,171.2275,29.33,72,88,4.86,MH,1727815321
107,kostomuksha,64.571,30.5767,6.72,83,100,4.14,RU,1727815321
108,salekhard,66.53,66.6019,3.91,83,100,8.01,RU,1727815321
109,manokwari,-0.8667,134.0833,26.22,79,96,2.49,ID,1727815321
110,christchurch,-43.5333,172.6333,14.07,66,99,3.09,NZ,1727815227
111,byron bay,-28.65,153.6167,17.05,76,100,4.7,AU,1727815321
112,"laikit, laikit ii (dimembe)",1.4792,124.9735,22.47,94,20,0.51,ID,1727815321
113,port elizabeth,-33.918,25.5701,13.51,91,20,2.57,ZA,1727815321
114,luderitz,-26.6481,15.1594,12.95,66,0,6.63,NA,1727815321
115,rongelap,11.1635,166.8941,28.66,78,28,7.81,MH,1727815321
116,mili,6.0815,171.735,28.95,73,47,5.25,MH,1727815321
117,tanumah,27.1,44.1333,26.43,16,0,4.28,SA,1727815322
118,guerrero negro,27.9769,-114.0611,26.61,49,0,6.24,MX,1727815322
119,mount pearl,47.5166,-52.7813,11.75,93,100,9.26,CA,1727815322
120,carbonear,47.7332,-53.2148,12.3,90,100,9.32,CA,1727815222
121,nar'yan-mar,67.6713,53.087,6.12,79,76,9.59,RU,1727815322
122,mishan,45.55,131.8833,3.47,75,32,1.21,CN,1727815322
123,utrik,11.2278,169.8474,28.71,80,96,7.72,MH,1727815323
124,aasiaat,68.7098,-52.8699,0.23,88,89,3.23,GL,1727815323
125,nuuk,64.1835,-51.7216,3.34,93,40,3.6,GL,1727815323
126,kavaratti,10.5669,72.642,27.6,76,48,1.25,IN,1727815323
127,toliara,-23.35,43.6667,23.79,87,27,7.0,MG,1727815323
128,kashgar,39.4547,75.9797,13.56,47,20,4.0,CN,1727815323
129,anadyr,64.75,177.4833,6.28,93,75,9.0,RU,1727815323
130,ramos arizpe,25.55,-100.9667,25.53,42,0,6.17,MX,1727815323
131,kangiwa,12.5521,3.8187,28.26,68,70,3.7,NG,1727815323
132,vorgashor,67.5833,63.95,2.87,84,100,9.58,RU,1727815323
133,ola,59.5833,151.2833,2.69,63,2,1.66,RU,1727815324
134,georgetown,5.4112,100.3354,26.96,93,20,1.03,MY,1727815059
135,loch garman,52.3342,-6.4575,11.61,98,6,4.02,IE,1727815324
136,college,64.8569,-147.8028,8.93,46,20,5.66,US,1727815324
137,phek,25.6667,94.5,19.03,99,100,0.69,IN,1727815324
138,codrington,-38.2667,141.9667,8.07,92,60,2.82,AU,1727815324
139,nieuw amsterdam,5.8833,-55.0833,32.01,55,20,5.14,SR,1727815324
140,yingkou,40.6648,122.2283,10.95,48,0,4.32,CN,1727815324
141,stanley,54.868,-1.6985,10.29,93,75,8.23,GB,1727815325
142,talakan,50.3167,130.3667,0.84,74,13,0.41,RU,1727815325
143,nadym,65.5333,72.5167,3.48,96,100,11.73,RU,1727815325
144,iquitos,-3.7481,-73.2472,32.72,48,94,1.48,PE,1727815189
145,tura,25.5198,90.2201,23.61,92,98,1.18,IN,1727815325
146,tiksi,71.6872,128.8694,-9.79,91,64,2.03,RU,1727815325
147,coxen hole,16.3244,-86.5366,30.6,74,40,3.6,HN,1727815325
148,iskateley,67.6803,53.1512,6.16,80,76,9.53,RU,1727815325
149,ust-tsilma,65.441,52.1498,4.16,68,52,4.0,RU,1727815325
150,luwuk,-0.9516,122.7875,22.12,81,90,1.73,ID,1727815325
151,konakovo,56.7,36.7667,9.2,76,100,3.05,RU,1727815325
152,port moresby,-9.4431,147.1797,25.68,89,100,4.12,PG,1727815322
153,marka,1.7159,44.7717,25.12,87,32,7.5,SO,1727815326
154,uturoa,-16.7333,-151.4333,26.52,78,78,4.93,PF,1727815326
155,aquidauana,-20.4711,-55.7872,39.18,19,85,3.47,BR,1727815145
156,acapulco de juarez,16.8634,-99.8901,26.9,82,100,1.76,MX,1727815222
157,pozanti,37.4278,34.8717,13.29,59,1,5.35,TR,1727815326
158,east london,-33.0153,27.9116,13.91,72,13,4.21,ZA,1727815326
159,thompson,55.7435,-97.8558,8.09,66,75,7.2,CA,1727815296
160,ancud,-41.8697,-73.8203,8.18,70,39,5.65,CL,1727815326
161,usinsk,65.9939,57.5281,3.29,84,84,6.66,RU,1727815326
162,parauapebas,-6.0675,-49.9022,23.99,94,100,2.57,BR,1727815326
163,gorom-gorom,14.4439,-0.2361,32.51,39,100,2.68,BF,1727815326
164,newport beach,33.6189,-117.9289,32.92,56,8,4.45,US,1727815326
165,jamestown,42.097,-79.2353,18.8,88,100,3.09,US,1727815203
166,west island,-12.1568,96.8225,25.99,83,20,6.69,CC,1727815327
167,kashipur,29.2167,78.95,22.98,92,0,2.05,IN,1727815327
168,nadapuram,11.7,75.6667,25.27,91,94,1.31,IN,1727815327
169,amahai,-3.3333,128.9167,24.7,89,100,1.31,ID,1727815327
170,afaahiti,-17.75,-149.2833,25.02,80,98,4.93,PF,1727815327
171,kualakapuas,-3.0091,114.3876,23.44,93,91,1.03,ID,1727815327
172,usogorsk,63.4106,48.6872,2.6,79,4,3.12,RU,1727815327
173,gebeit,21.0667,36.3167,26.87,45,30,2.87,SD,1727815327
174,boguchany,58.3814,97.4531,4.72,94,99,2.22,RU,1727815327
175,udachny,66.4167,112.4,0.9,98,100,5.44,RU,1727815328
176,ballina,-28.8667,153.5667,18.03,71,91,5.9,AU,1727815328
177,anaconda,46.1285,-112.9423,22.93,16,84,6.38,US,1727815183
178,palikir - national government center,6.9248,158.1611,24.41,94,100,3.09,FM,1727815328
179,mount isa,-20.7333,139.5,20.87,23,20,5.14,AU,1727815328
180,iqaluit,63.7506,-68.5145,7.85,70,75,13.38,CA,1727815328
181,ingeniero jacobacci,-41.3427,-69.5448,7.86,27,15,10.63,AR,1727815328
182,sumbe,-11.2061,13.8437,22.98,88,71,4.39,AO,1727815328
183,sitka,57.0531,-135.33,11.94,58,100,8.75,US,1727815328
184,baker city,44.7749,-117.8344,23.84,13,0,8.75,US,1727815328
185,villa ojo de agua,-29.5,-63.6938,24.63,22,12,8.98,AR,1727815328
186,saint-joseph,-21.3667,55.6167,21.21,79,21,4.63,RE,1727815328
187,nemuro,43.3236,145.575,17.16,99,100,1.22,JP,1727815329
188,ljusdal,61.8288,16.0913,5.51,91,75,0.73,SE,1727815329
189,natal,-5.795,-35.2094,26.36,69,20,9.26,BR,1727815323
190,laredo,27.5064,-99.5075,34.16,36,40,4.12,US,1727815229
191,nyurba,63.2842,118.3319,4.09,97,100,4.07,RU,1727815329
192,tres arroyos,-38.3739,-60.2798,11.1,61,95,2.86,AR,1727815329
193,avarua,-21.2078,-159.775,23.03,56,20,3.09,CK,1727815329
194,hadibu,12.65,54.0333,25.38,80,61,3.68,YE,1727815329
195,fale old settlement,-9.3852,-171.2468,27.47,76,98,4.53,TK,1727815329
196,kristiansund,63.1115,7.732,8.36,87,20,1.03,NO,1727815329
197,mahdia,35.5047,11.0622,24.36,67,0,7.06,TN,1727815330
198,kainantu,-6.2887,145.8655,16.37,91,93,0.69,PG,1727815330
199,sullivan,36.5168,-82.5332,24.45,77,75,2.57,US,1727815330
200,alofi,-19.0595,-169.9187,23.94,73,100,8.23,NU,1727815330
201,laojunmiao,39.8333,97.7333,6.56,17,0,4.18,CN,1727815330
202,arraial do cabo,-22.9661,-42.0278,25.98,69,0,10.29,BR,1727815330
203,albertina,-22.2008,-46.6158,28.03,24,30,2.06,BR,1727815330
204,santa ana,33.7456,-117.8678,33.8,50,0,2.68,US,1727815279
205,murashi,59.3999,48.9615,2.79,70,100,1.98,RU,1727815331
206,kenai,60.5544,-151.2583,10.57,67,0,5.66,US,1727815331
207,beinamar,8.6698,15.3813,23.09,90,86,1.28,TD,1727815331
208,constantia,44.1833,28.65,11.5,78,79,9.77,RO,1727815331
209,zaozersk,69.4005,32.4476,2.54,67,1,12.36,RU,1727815331
210,sulak,43.2734,47.5146,19.25,73,71,8.74,RU,1727815331
211,tralee,52.2704,-9.7026,10.98,87,85,1.6,IE,1727815331
212,shushi,39.7589,46.7492,10.7,64,3,3.21,AZ,1727815331
213,lucapa,-8.4192,20.7447,21.85,67,41,1.39,AO,1727815331
214,geraldton,-28.7667,114.6,17.23,72,83,8.23,AU,1727815331
215,loango,-4.6719,11.8312,24.79,86,100,4.04,CG,1727815331
216,sao jose da coroa grande,-8.8978,-35.1478,23.54,80,7,3.8,BR,1727815332
217,revda,56.801,59.9303,1.91,71,0,1.11,RU,1727815332
218,roma,43.2128,-75.4557,22.43,59,93,2.68,US,1727815332
219,berezovyy,51.6667,135.7,0.03,84,8,1.92,RU,1727815332
220,lesosibirsk,58.2358,92.4828,6.2,92,100,2.48,RU,1727815332
221,viransehir,37.2353,39.7631,20.53,58,0,3.84,TR,1727815332
222,victorica,-36.2151,-65.4359,19.55,19,99,7.48,AR,1727815332
223,fabens,31.5023,-106.1586,29.55,15,0,10.76,US,1727815332
224,pangody,65.85,74.4859,2.36,87,81,9.79,RU,1727815332
225,poltava,49.5937,34.5407,15.06,24,0,4.21,UA,1727815332
226,carnarvon,-24.8667,113.6333,19.12,68,82,8.6,AU,1727815333
227,klaksvik,62.2266,-6.589,8.97,83,100,3.71,FO,1727815333
228,talnakh,69.4865,88.3972,1.38,99,99,0.78,RU,1727815333
229,yuzhno-kurilsk,44.0306,145.8556,17.47,99,100,2.08,RU,1727815333
230,madaoua,14.073,5.96,31.99,43,8,3.7,NE,1727815333
231,dongola,19.1667,30.4833,32.13,18,0,6.81,SD,1727815333
232,atafu village,-8.5421,-172.5159,27.56,74,99,2.8,TK,1727815333
233,olonkinbyen,70.9221,-8.7187,-2.31,96,100,6.6,SJ,1727815333
234,severo-yeniseyskiy,60.3725,93.0408,-1.07,96,16,2.32,RU,1727815333
235,ilulissat,69.2167,-51.1,3.01,87,75,0.0,GL,1727815333
236,iranduba,-3.2847,-60.1861,32.16,56,99,0.18,BR,1727815333
237,portrush,55.1959,-6.6493,13.05,65,20,1.79,GB,1727815333
238,fada,7.25,4.0667,25.37,94,20,2.57,NG,1727815334
239,santiago,-33.4569,-70.6483,17.25,53,75,4.63,CL,1727815169
240,donaghadee,54.6333,-5.5333,13.06,85,100,1.79,GB,1727815334
241,kas,36.2018,29.6377,22.06,38,0,1.72,TR,1727815334
242,redwood falls,44.5394,-95.1169,18.97,22,0,4.12,US,1727815334
243,pauini,-7.7136,-66.9764,34.22,36,87,1.95,BR,1727815334
244,port douglas,-16.4833,145.4667,24.45,78,94,4.99,AU,1727815334
245,lagos,6.5833,3.75,24.84,89,84,2.13,NG,1727815208
246,petropavlovsk-kamchatsky,53.0452,158.6483,12.33,62,75,2.0,RU,1727815334
247,la ronge,55.1001,-105.2842,11.14,46,20,6.17,CA,1727815334
248,massawa,15.6097,39.45,30.96,70,13,3.12,ER,1727815334
249,gaalkacyo,6.7697,47.4308,25.05,67,72,6.65,SO,1727815334
250,vila franca do campo,37.7167,-25.4333,24.23,94,87,4.56,PT,1727815335
251,ormara,25.2088,64.6357,27.21,87,0,6.34,PK,1727815335
252,yeppoon,-23.1333,150.7333,21.81,70,5,8.71,AU,1727815335
253,akureyri,65.6835,-18.0878,9.96,66,75,8.23,IS,1727815335
254,gunjur,13.2019,-16.7339,27.04,89,20,2.57,GM,1727815335
255,schroeder,-26.4125,-49.0731,25.43,78,91,1.83,BR,1727815335
256,oranjemund,-28.55,16.4333,12.74,72,10,6.51,NA,1727815335
257,susanville,40.4163,-120.653,31.03,9,0,2.64,US,1727815335
258,leava,-14.3,-178.1667,26.74,83,0,6.62,WF,1727815335
259,el granada,37.5027,-122.4694,33.33,38,0,2.57,US,1727815335
260,queenstown,-31.8976,26.8753,5.65,67,0,1.8,ZA,1727815335
261,tweed heads,-28.1817,153.547,17.88,82,86,3.09,AU,1727815336
262,ndende,-2.4008,11.3581,23.34,94,100,1.83,GA,1727815336
263,dickinson,29.4608,-95.0513,34.49,50,40,4.12,US,1727815336
264,mejit,10.2753,170.8646,29.01,77,32,6.11,MH,1727815336
265,chikhli,20.35,76.25,24.16,83,19,1.98,IN,1727815336
266,vernon,50.2581,-119.2691,11.63,76,100,1.79,CA,1727815336
267,noumea,-22.2763,166.4572,21.85,73,77,3.03,NC,1727815336
268,holualoa,19.6228,-155.9522,28.08,64,20,3.6,US,1727815206
269,crane,31.3974,-102.3501,30.86,19,0,7.37,US,1727815336
270,vilyuysk,63.7553,121.6247,2.67,98,100,3.69,RU,1727815336
271,hanceville,34.0607,-86.7675,27.31,62,83,3.02,US,1727815337
272,chengde,40.9725,117.9361,3.86,64,0,2.08,CN,1727815337
273,poso,-1.3959,120.7524,24.6,75,97,1.69,ID,1727815337
274,camana,-16.6228,-72.7111,17.92,80,11,4.95,PE,1727815337
275,sungai penuh,-2.0833,101.3833,18.34,95,100,1.41,ID,1727815065
276,emerald,-23.5333,148.1667,18.52,85,41,7.19,AU,1727815337
277,fort mcmurray,56.7268,-111.381,6.77,56,75,2.06,CA,1727815337
278,nuku'alofa,-21.1333,-175.2,24.19,83,75,7.2,TO,1727815337
279,bubaque,11.2833,-15.8333,27.52,83,7,4.9,GW,1727815337
280,markovo,57.3206,107.0881,8.91,90,100,6.84,RU,1727815338
281,kendari,-3.945,122.4989,22.7,95,99,1.32,ID,1727815338
282,maymana,35.9214,64.7836,21.49,30,0,1.18,AF,1727815338
283,banjarmasin,-3.3244,114.591,25.08,92,50,1.09,ID,1727815338
284,gwanda,-20.9333,29.0,18.62,38,0,8.54,ZW,1727815338
285,karratha,-20.7377,116.8463,23.62,59,14,5.12,AU,1727815338
286,tabas,33.5959,56.9244,25.3,19,0,2.59,IR,1727815338
287,nueva imperial,-38.7333,-72.95,9.58,52,19,4.15,CL,1727815338
288,chimbote,-9.0853,-78.5783,19.88,77,17,4.44,PE,1727815063
289,tazacorte,28.629,-17.9293,22.54,90,0,5.66,ES,1727815338
290,mountain home,43.133,-115.6912,22.79,17,40,4.63,US,1727815338
291,hays,30.0502,-98.0336,34.98,33,0,5.05,US,1727815338
292,saipan,15.1355,145.701,28.39,83,20,6.69,MP,1727815339
293,las tunas,20.9617,-76.9511,27.72,80,100,2.23,CU,1727815339
294,swakopmund,-22.6833,14.5333,13.88,81,0,0.45,NA,1727815201
295,baihar,22.1,80.55,21.89,91,8,0.96,IN,1727815339
296,port alfred,-33.5906,26.891,10.66,93,32,2.82,ZA,1727815339
297,sandnessjoen,66.0217,12.6316,7.06,76,75,5.14,NO,1727815339
298,nema,57.5067,50.5011,3.37,56,0,2.67,RU,1727815339
299,palangkaraya,-2.2,113.8333,24.67,89,100,0.72,ID,1727815339
300,beau vallon,-20.4189,57.6953,22.13,83,40,4.63,MU,1727815339
301,san pedro pochutla,15.7333,-96.4667,28.84,93,100,3.17,MX,1727815339
302,alice springs,-23.7,133.8833,7.75,61,0,1.54,AU,1727815339
303,kill devil hills,36.0307,-75.676,23.32,84,75,4.63,US,1727815339
304,changyon,38.2508,125.0961,10.48,59,6,2.18,KP,1727815340
305,lautoka,-17.6167,177.4667,26.92,69,20,1.54,FJ,1727815340
306,north bay,46.3168,-79.4663,22.01,64,75,5.14,CA,1727815340
307,aur,8.1499,171.1687,29.04,73,89,5.61,MH,1727815340
308,vico del gargano,41.8983,15.9576,17.77,72,42,2.35,IT,1727815340
309,umba,66.6871,34.3429,6.85,74,70,5.7,RU,1727815340
310,sinabang,2.4803,96.3801,25.86,87,100,1.01,ID,1727815340
311,chepen,-7.2167,-79.45,24.09,60,24,5.5,PE,1727815340
312,horta,38.5333,-28.6333,24.45,94,75,7.72,PT,1727815340
313,puerto deseado,-47.7503,-65.8938,6.18,71,99,8.59,AR,1727815232
314,wad rawah,15.1603,33.1397,32.58,37,26,4.38,SD,1727815340
315,phatthalung,7.5,100.0833,25.52,89,85,1.64,TH,1727815340
316,aripuana,-9.1667,-60.6333,34.14,41,78,1.08,BR,1727815341
317,nagqu,31.5,92.0,2.96,83,53,2.0,CN,1727815341
318,mahina,-17.5065,-149.489,28.87,70,0,4.63,PF,1727815341
319,san daniele del friuli,46.1614,13.0142,14.84,78,100,0.36,IT,1727815341
320,erdenet,49.0333,104.0833,0.17,74,32,2.46,MN,1727815236
321,pisco,-13.7,-76.2167,19.45,80,24,2.58,PE,1727815159
322,bhinga,27.7167,81.9333,24.2,83,0,0.97,IN,1727815341
323,tannum sands,-23.9504,151.3693,20.42,77,40,4.63,AU,1727815341
324,bairnsdale,-37.8333,147.6167,6.7,96,94,0.32,AU,1727815341
325,gun barrel city,32.3346,-96.1514,33.52,45,0,1.79,US,1727815341
326,vilyuchinsk,52.9306,158.4028,13.15,84,100,2.94,RU,1727815341
327,arkhangel'sk,64.5401,40.5433,3.06,81,0,2.0,RU,1727815341
328,vizinga,61.0749,50.1031,2.22,74,100,1.75,RU,1727815342
329,dera bugti,29.0307,69.151,30.62,20,0,1.98,PK,1727815342
330,paracuru,-3.41,-39.0306,25.43,82,21,6.6,BR,1727815342
331,wattegama,6.7989,81.4808,24.76,88,100,1.7,LK,1727815342
332,vorkuta,67.5,64.0,3.08,83,100,9.47,RU,1727815342
333,kiunga,-6.1219,141.2906,23.78,96,100,1.2,PG,1727815342
334,hajin,34.6927,40.827,25.51,41,0,6.22,SY,1727815342
335,tsiombe,-25.3,45.4833,22.61,88,48,3.21,MG,1727815342
336,hyesan,41.4017,128.1778,0.47,97,7,0.42,KP,1727815342
337,castillos,-34.1667,-53.8333,13.95,85,0,3.97,UY,1727815342
338,sopo,4.9075,-73.9384,18.27,60,87,2.25,CO,1727815342
339,turinsk,58.0458,63.696,2.72,75,0,3.07,RU,1727815343
340,sola,-13.8833,167.55,26.33,79,20,5.91,VU,1727815343
341,buka,40.8108,69.1986,18.2,42,96,1.08,UZ,1727815343
342,suva,-18.1416,178.4415,24.71,94,75,0.0,FJ,1727815274
343,ribeirao branco,-24.2208,-48.7656,26.43,36,12,0.17,BR,1727815343
344,salalah,17.0151,54.0924,26.05,89,75,2.06,OM,1727815343
345,belmonte,-15.8631,-38.8828,22.67,85,0,2.57,BR,1727815343
346,touros,-5.1989,-35.4608,24.72,75,4,7.24,BR,1727815343
347,chibougamau,49.9168,-74.3659,18.79,52,40,4.63,CA,1727815151
348,irondequoit,43.2134,-77.5797,22.78,69,92,0.89,US,1727815343
349,ouddorp,51.8117,3.9347,12.77,83,54,6.04,NL,1727815343
350,bilohirsk,45.05,34.6,13.64,87,100,2.45,UA,1727815343
351,kimbe,-5.5502,150.1429,25.7,89,36,1.76,PG,1727815344
352,south hedland,-20.4089,118.5983,23.96,88,75,0.0,AU,1727815344
353,yokadouma,3.5167,15.05,21.22,98,81,0.94,CM,1727815344
354,bereeda,11.8704,51.0579,27.29,73,7,6.16,SO,1727815344
355,tezu,27.9167,96.1667,23.21,97,84,1.7,IN,1727815344
356,jackson,42.4165,-122.8345,29.86,13,0,1.11,US,1727815298
357,moapa valley,36.5805,-114.4703,38.99,7,0,0.64,US,1727815344
358,yugo-kamskiy,57.7053,55.5894,2.54,67,7,1.42,RU,1727815344
359,taulaga,-11.0553,-171.0883,25.71,84,100,6.28,AS,1727815344
360,ceuta,35.8903,-5.3075,21.16,75,8,2.72,ES,1727815344
361,atar,20.5169,-13.0499,35.53,20,36,3.52,MR,1727815344
362,saint-pierre,-21.3393,55.4781,21.82,64,0,1.54,RE,1727815344
363,trondheim,63.4305,10.3951,7.22,93,81,0.89,NO,1727815344
364,saudarkrokur,65.7461,-19.6394,6.74,93,100,7.45,IS,1727815345
365,bodaybo,57.8506,114.1933,4.19,93,100,2.75,RU,1727815345
366,ar rutbah,33.0381,40.2848,22.67,43,0,7.24,IQ,1727815345
367,kencong,-8.2833,113.3667,23.85,93,43,0.44,ID,1727815345
368,hinnerup,56.2661,10.063,10.31,60,86,5.85,DK,1727815345
369,bel ombre,-4.6167,55.4167,27.91,74,40,3.09,SC,1727815345
370,albacete,38.8333,-2.0,16.45,48,0,2.06,ES,1727815345
371,ialibu,-6.2821,143.9935,14.34,96,59,0.85,PG,1727815345
372,yongchuan,29.3514,105.8947,16.02,91,100,0.99,CN,1727815345
373,bojnurd,37.4747,57.329,12.97,50,0,1.03,IR,1727815345
374,arno,60.1167,18.6333,8.6,70,100,2.96,SE,1727815345
375,beloretsk,53.9631,58.3981,7.34,73,79,3.21,RU,1727815345
376,red deer,52.2668,-113.802,14.27,51,40,3.09,CA,1727815240
377,port macquarie,-31.4333,152.9167,17.32,70,85,3.58,AU,1727815346
378,tokar,18.4254,37.729,29.34,70,6,2.53,SD,1727815346
379,misratah,32.3754,15.0925,23.81,59,0,2.83,LY,1727815346
380,new norfolk,-42.7826,147.0587,5.95,78,7,1.01,AU,1727815346
381,san antonio de pale,-1.4014,5.6325,24.55,80,100,5.97,GQ,1727815346
382,khandyga,62.6667,135.6,-0.67,93,100,0.22,RU,1727815346
383,quesnel,52.9999,-122.5029,12.28,76,75,6.69,CA,1727815346
384,xai-xai,-25.0519,33.6442,19.22,55,0,6.39,MZ,1727815346
385,poronaysk,49.2167,143.1167,7.93,93,100,1.76,RU,1727815346
386,kotri,25.366,68.3122,27.76,74,0,9.04,PK,1727815346
387,neyriz,29.1988,54.3278,20.92,19,0,2.0,IR,1727815346
388,rabigh,22.7986,39.0349,28.48,59,2,4.14,SA,1727815346
389,hammerfest,70.6634,23.6821,4.25,87,75,20.06,NO,1727815347
390,vila velha,-20.3297,-40.2925,25.97,82,20,7.2,BR,1727815347
391,flying fish cove,-10.4217,105.6791,25.82,88,100,4.63,CX,1727815347
392,san-pedro,4.7485,-6.6363,24.38,89,60,3.99,CI,1727815347
393,island harbour,50.724,-1.2758,13.35,65,100,4.02,GB,1727815347
394,jilin,43.0,126.0,2.6,71,34,2.01,CN,1727815347
395,tamanrasset,22.785,5.5228,24.95,23,20,1.54,DZ,1727815347
396,makarov,48.6333,142.8,9.04,94,100,4.41,RU,1727815347
397,meizhou,24.2977,116.1072,20.14,78,100,2.13,CN,1727815347
398,isafjordur,66.0755,-23.124,4.87,97,100,2.99,IS,1727815348
399,kiffa,16.6166,-11.4045,33.22,43,86,5.21,MR,1727815348
400,la passe,45.5549,-0.8967,14.04,84,100,4.84,FR,1727815348
401,chui,-33.6971,-53.4616,14.98,87,99,4.88,UY,1727815348
402,atherton,53.5237,-2.4935,12.94,84,100,1.34,GB,1727815348
403,upington,-28.4478,21.2561,13.21,26,1,1.54,ZA,1727815348
404,touba,8.2833,-7.6833,22.11,94,77,0.77,CI,1727815348
405,gokceada,40.2011,25.909,20.31,52,6,2.94,TR,1727815348
406,pekalongan,-6.8886,109.6753,25.9,81,100,1.91,ID,1727815165
407,borovskoy,53.8,64.15,9.76,61,68,6.13,KZ,1727815348
408,shingu,33.7333,135.9833,20.13,78,90,2.21,JP,1727815348
409,orange walk,17.8333,-88.8333,28.18,93,100,0.44,BZ,1727815349
410,danane,7.2596,-8.155,21.84,99,63,0.81,CI,1727815349
411,fomboni,-12.28,43.7425,25.63,78,0,7.96,KM,1727815349
412,hamilton,39.1834,-84.5333,25.57,76,75,2.06,US,1727815349
413,carauari,-4.8828,-66.8958,33.04,47,100,0.74,BR,1727815349
414,afua,-0.1567,-50.3867,25.14,89,89,2.13,BR,1727815349
415,tolanaro,-25.0319,46.9987,26.04,53,0,5.14,MG,1727815349
416,guane,22.2025,-84.0875,30.53,64,56,3.83,CU,1727815349
417,kuanda,56.3161,116.0806,3.56,72,100,0.78,RU,1727815349
418,ximeicun,24.9639,118.3794,24.01,87,100,2.49,CN,1727815349
419,ulety,51.3572,112.4849,4.56,71,95,5.28,RU,1727815349
420,wenchang,30.904,118.4887,13.56,89,37,0.86,CN,1727815349
421,ciudad lazaro cardenas,17.9583,-102.2,28.05,80,99,2.97,MX,1727815350
422,morondava,-20.2833,44.2833,24.3,84,3,3.97,MG,1727815350
423,mizdah,31.4451,12.9801,22.84,35,11,3.17,LY,1727815350
424,grand falls-windsor,48.9332,-55.6649,8.06,93,100,2.24,CA,1727815212
425,masterton,-40.9597,175.6575,13.91,64,82,3.19,NZ,1727815350
426,kasama,-10.2129,31.1808,23.7,45,92,0.97,ZM,1727815350
427,recani,31.2846,-4.2688,26.37,39,0,7.0,MA,1727815350
428,portage la prairie,49.9728,-98.2926,16.05,31,75,4.12,CA,1727815350
429,aracataca,10.5918,-74.1898,29.23,67,92,5.87,CO,1727815350
430,saint-felix-de-valois,46.1668,-73.4324,16.36,78,90,1.98,CA,1727815350
431,murzuq,25.9155,13.9184,26.59,29,0,4.61,LY,1727815350
432,kandi,11.1342,2.9386,24.43,87,84,1.41,BJ,1727815350
433,greenville,35.6127,-77.3663,25.97,86,100,2.06,US,1727815350
434,dwarka,22.2394,68.9678,27.68,81,0,4.53,IN,1727815351
435,howard springs,-12.497,131.047,26.95,83,5,1.74,AU,1727815351
436,visakhapatnam,17.69,83.2093,26.56,92,74,4.2,IN,1727815351
437,camiri,-20.05,-63.5167,37.88,25,64,2.06,BO,1727815351
438,brookings,44.3114,-96.7984,17.88,31,0,5.14,US,1727815351
439,biltine,14.5333,20.9167,30.99,40,90,7.34,TD,1727815351
440,magdagachi,53.45,125.8,2.14,63,99,1.7,RU,1727815351
441,terrace,54.5163,-128.6035,8.95,93,75,8.23,CA,1727815300
442,griffith,41.5284,-87.4237,20.92,46,0,7.2,US,1727815351
443,thanh hoa,19.8,105.7667,22.56,74,100,5.11,VN,1727815352
444,paita,-5.0892,-81.1144,19.98,77,99,7.05,PE,1727815352
445,klyuchi,52.2667,79.1667,11.39,44,3,2.68,RU,1727815352
446,gambela,8.25,34.5833,21.73,95,98,1.34,ET,1727815352
447,argo,37.6333,22.7333,19.38,74,0,0.94,GR,1727815352
448,kushiro,42.975,144.3747,15.53,100,75,1.54,JP,1727815352
449,ebeltoft,56.1944,10.6821,11.01,58,75,6.69,DK,1727815352
450,lerwick,60.1545,-1.1494,10.52,82,26,1.09,GB,1727815352
451,altai,46.3722,96.2583,1.34,52,2,0.93,MN,1727815352
452,batabano,22.7164,-82.2881,29.64,68,2,2.23,CU,1727815353
453,ruteng,-8.6136,120.4721,15.81,92,90,0.54,ID,1727815353
454,tshikapa,-6.4167,20.8,23.95,69,28,1.78,CD,1727815353
455,springs,-26.25,28.4,12.04,45,0,1.41,ZA,1727815353
456,tadine,-21.55,167.8833,23.12,73,1,6.06,NC,1727815353
457,rakops,-21.0167,24.3333,16.29,7,0,3.79,BW,1727815353
458,fairwood,47.4484,-122.1573,23.38,40,40,3.6,US,1727815353
459,bijie,27.3125,105.2942,9.97,77,100,0.54,CN,1727815154
460,robore,-18.3333,-59.75,38.05,39,20,9.26,BO,1727815353
461,masaka,-0.3338,31.7341,18.04,76,45,1.32,UG,1727815353
462,cole harbour,44.6724,-63.4751,17.18,64,19,5.81,CA,1727815354
463,clinton,42.587,-82.9199,23.94,77,40,4.63,US,1727815249
464,ulsteinvik,62.3432,5.8487,9.86,87,12,0.22,NO,1727815354
465,kikwit,-5.041,18.8162,23.28,88,97,1.2,CD,1727815354
466,caleta de carquin,-11.0925,-77.6267,19.18,82,47,4.38,PE,1727815354
467,punta del este,-34.9667,-54.95,14.06,91,100,5.14,UY,1727815102
468,brownwood,31.7093,-98.9912,31.09,41,0,5.25,US,1727815109
469,babayevo,59.3936,35.9371,4.95,74,100,2.67,RU,1727815354
470,benjamin aceval,-24.9667,-57.5667,39.0,18,4,3.34,PY,1727815354
471,tindouf,27.6711,-8.1474,34.25,20,10,3.09,DZ,1727815354
472,pemangkat,1.1667,108.9667,25.68,85,100,1.84,ID,1727815354
473,tromso,69.6496,18.957,4.01,70,40,9.77,NO,1727815354
474,porto seguro,-16.4497,-39.0647,25.29,78,40,3.6,BR,1727815282
475,gisborne,-38.6533,178.0042,14.41,63,89,2.12,NZ,1727815355
476,oromocto,45.8351,-66.4792,19.03,52,20,4.63,CA,1727815355
477,prieska,-29.6641,22.7474,11.03,18,0,2.16,ZA,1727815355
478,visby,57.6409,18.296,10.02,61,40,3.09,SE,1727815355
479,kalmunai,7.4167,81.8167,27.06,78,100,3.44,LK,1727815355
480,quibdo,5.6947,-76.6611,28.19,78,75,3.09,CO,1727815355
481,praia da vitoria,38.7333,-27.0667,26.14,83,40,6.7,PT,1727815355
482,weno,7.4515,151.8468,26.97,83,40,1.54,FM,1727815355
483,pierre,44.3683,-100.351,21.51,21,0,7.2,US,1727815355
484,ceeldheer,3.8488,47.1806,24.38,90,78,5.01,SO,1727815355
485,mezhdurechenskiy,59.6,65.9333,4.01,66,2,4.54,RU,1727815355
486,nantucket,41.2835,-70.0995,18.06,77,40,5.66,US,1727815206
487,el sauzal de rodriguez,31.9,-116.6833,20.23,69,43,3.0,MX,1727815356
488,filadelfia,39.9523,-75.1638,21.56,75,100,6.17,US,1727815105
489,kirakira,-10.4544,161.9205,27.33,81,7,2.35,SB,1727815356
490,sandakan,5.8402,118.1179,23.82,94,20,2.24,MY,1727815356
491,ust'-donetskiy,47.6419,40.8718,13.11,32,1,3.39,RU,1727815356
492,mersing,2.4312,103.8405,24.95,94,20,0.0,MY,1727815356
493,ambovombe,-25.1667,46.0833,23.23,77,48,1.08,MG,1727815356
494,pyin oo lwin,22.0333,96.4667,18.75,98,100,1.05,MM,1727815356
495,auki,-8.7676,160.7034,27.35,77,13,1.42,SB,1727815356
496,cartagena del chaira,1.3349,-74.8429,31.62,50,87,1.41,CO,1727815356
497,midelt,32.6852,-4.7451,22.6,36,34,2.87,MA,1727815357
498,akola,20.7333,77.0,26.15,80,5,2.76,IN,1727815357
499,taro,-8.3862,115.28,18.72,98,23,0.45,ID,1727815357
500,plastun,44.7561,136.2939,4.67,91,47,3.58,RU,1727815357
501,suntar,62.1444,117.6319,4.25,97,100,4.44,RU,1727815357
502,saint george's,12.0564,-61.7485,30.82,70,75,5.66,GD,1727815357
503,kununurra,-15.7667,128.7333,18.99,77,0,0.0,AU,1727815357
504,inari,68.906,27.0288,2.04,65,27,6.95,FI,1727815357
505,bontang,0.1333,117.5,25.07,88,100,2.01,ID,1727815357
506,talas,38.6908,35.5538,11.37,66,75,2.06,TR,1727815357
507,bamboo flat,11.7,92.7167,26.05,94,75,3.09,IN,1727815358
508,al jawf,29.5,38.75,22.0,46,0,4.6,SA,1727815358
509,ayr,55.4627,-4.6339,9.99,81,0,2.06,GB,1727815358
510,kuching,1.55,110.3333,26.12,96,40,1.54,MY,1727815358
511,canatlan,24.5167,-104.7833,22.94,37,39,8.08,MX,1727815358
512,oriximina,-1.7656,-55.8661,31.49,55,100,2.01,BR,1727815358
513,polyarnyy,69.1989,33.4478,3.33,66,2,11.24,RU,1727815358
514,sosnovyy bor,59.9,29.1167,8.2,64,100,6.53,RU,1727815358
515,altamont,42.2068,-121.7372,24.94,22,0,0.89,US,1727815358
516,clarkston heights-vineland,46.3874,-117.083,26.0,14,14,0.68,US,1727815358
517,ilula,-7.6766,36.0366,17.65,79,100,1.8,TZ,1727815359
518,sur,22.5667,59.5289,28.59,65,0,5.51,OM,1727815359
519,persembe,41.0656,37.7714,16.68,88,92,1.53,TR,1727815359
520,umm kaddadah,13.6017,26.6876,25.56,64,96,6.43,SD,1727815359
521,ipora,-16.4419,-51.1178,33.52,16,15,1.74,BR,1727815359
522,muisne,0.6,-80.0333,24.53,80,95,4.2,EC,1727815359
523,starobaltachevo,56.0013,55.9213,4.65,58,1,3.59,RU,1727815359
524,mil'kovo,55.6078,37.7956,13.52,61,0,4.11,RU,1727815359
525,ascension,30.2169,-90.9001,32.26,58,65,3.47,US,1727815359
526,al kharj,24.155,47.3346,31.32,21,0,5.31,SA,1727815252
527,pathein,16.7833,94.7333,24.12,97,100,2.64,MM,1727815359
528,bria,6.5423,21.9863,21.4,96,91,0.8,CF,1727815359
529,garachico,28.7781,-17.7646,21.06,73,0,5.66,ES,1727815360
530,careiro da varzea,-3.2003,-59.8119,32.34,56,100,0.96,BR,1727815360
531,nguruka,-5.1092,31.0419,25.06,54,100,2.65,TZ,1727815360
532,jinzhou,41.1078,121.1417,6.64,48,0,3.24,CN,1727815360
533,bonthe,7.5264,-12.505,25.63,85,100,4.78,SL,1727815360
534,beloyarskiy,63.7119,66.6722,5.22,61,99,6.91,RU,1727815360
535,raduzhny,62.0961,77.475,3.64,73,82,10.31,RU,1727815360
536,mitu,1.1983,-70.1733,30.58,59,66,1.08,CO,1727815360
537,ilica,39.9463,41.1091,7.96,87,75,1.54,TR,1727815360
538,fisterra,42.9049,-9.2629,17.55,99,100,4.28,ES,1727815360
539,zouerate,22.7187,-12.4521,32.66,23,77,3.58,MR,1727815360
540,saldanha,-33.0117,17.9442,11.03,82,61,7.62,ZA,1727815361
541,san luis de la loma,17.2706,-100.8939,27.75,81,97,1.91,MX,1727815361
542,ninghai,29.2892,121.4247,18.28,84,100,7.17,CN,1727815361
543,ilhabela,-23.7781,-45.3581,25.91,58,2,2.77,BR,1727815361
544,opuwo,-18.0607,13.84,21.76,28,1,2.15,NA,1727815361
545,cartagena,10.3997,-75.5144,30.79,62,20,4.12,CO,1727815201
546,lorengau,-2.0226,147.2712,27.92,82,83,3.87,PG,1727815361
547,kayangel,8.0823,134.7173,29.2,72,99,4.82,PW,1727815361
548,kapa'a,22.0752,-159.319,29.18,69,20,4.63,US,1727815361
549,baiyin,36.5583,104.2081,8.59,28,0,0.97,CN,1727815361
550,peterhead,57.5058,-1.7981,11.34,81,7,6.81,GB,1727815362
551,maintirano,-18.0667,44.0167,25.31,84,0,0.78,MG,1727815362
552,augusta,48.3667,10.8833,12.0,94,100,1.54,DE,1727815296
553,albardon,-31.4372,-68.5256,22.36,20,0,6.48,AR,1727815362
554,dzerzhinskoye,56.8344,95.2283,7.38,93,100,0.54,RU,1727815362
555,agat village,13.3886,144.6585,28.52,90,0,3.6,GU,1727815362
556,novyy turtkul',41.55,61.0167,18.24,21,1,2.54,UZ,1727815362
557,buala,-8.145,159.5921,28.05,77,15,2.75,SB,1727815362
558,formosa do rio preto,-11.0483,-45.1931,30.22,24,5,2.41,BR,1727815362
559,sabang,5.8933,95.3214,28.12,80,100,5.16,ID,1727815362
560,san patricio,28.017,-97.5169,32.97,33,0,5.75,US,1727815362
561,taoudenni,22.6783,-3.9836,38.05,16,78,6.23,ML,1727815363
562,laguna de perlas,12.3429,-83.6712,26.77,78,95,2.53,NI,1727815363
563,chincha alta,-13.4099,-76.1323,18.36,82,74,2.64,PE,1727815363
564,walvis bay,-22.9575,14.5053,14.53,77,0,3.09,NA,1727815363
565,puerto aysen,-45.4,-72.7,4.65,100,100,2.49,CL,1727815363
566,bengkulu,-3.8004,102.2655,23.85,93,31,1.61,ID,1727815363
567,taltal,-25.4,-70.4833,17.53,71,27,3.79,CL,1727815220
568,khovd,48.0056,91.6419,5.13,38,0,0.54,MN,1727815363
569,antalaha,-14.9003,50.2788,21.14,84,40,2.53,MG,1727815363
570,araguaina,-7.1911,-48.2072,33.81,32,98,3.04,BR,1727815363
571,margate,51.3813,1.3862,13.82,90,100,0.89,GB,1727815363
572,eastham,41.8301,-69.9739,18.88,81,98,6.1,US,1727815326
573,mahibadhoo,3.7833,72.9667,27.78,74,85,4.82,MV,1727815364
574,bani walid,31.7566,13.9942,22.27,62,0,4.43,LY,1727815364
575,serres,41.0856,23.5497,13.7,47,15,0.87,GR,1727815364
576,zhukovka,53.534,33.728,11.3,35,2,3.01,RU,1727815364
577,launceston,-41.45,147.1667,2.8,80,20,1.54,AU,1727815364
578,kerben,40.2951,72.1863,15.45,43,62,2.2,KG,1727815364
579,dryden,49.7833,-92.7503,13.16,38,75,7.2,CA,1727815364
580,fort bragg,35.139,-79.006,25.93,74,20,2.57,US,1727815364
581,gowurdak,37.8124,66.0466,21.38,36,0,2.51,TM,1727815364
582,as sulayyil,20.4607,45.5779,29.6,21,1,4.32,SA,1727815364
583,yemva,62.59,50.8594,2.57,78,7,2.19,RU,1727815364
584,cooper's town,26.8667,-77.5167,28.75,63,64,1.97,BS,1727815364
585,nabire,-3.3667,135.4833,23.79,92,100,1.46,ID,1727815365
